{"version": 0.6, "generator": "Overpass API 0.7.62.1 084b4234", "osm3s": {"timestamp_osm_base": "2024-11-07T07:13:19Z", "copyright": "The data included in this document is from www.openstreetmap.org. The data is made available under ODbL."}, "elements": [{"type": "node", "id": 245599837, "lat": 11.9235602, "lon": 75.3360729, "tags": {"name": "Azhikode", "name:ml": "\u0d05\u0d34\u0d40\u0d15\u0d4d\u0d15\u0d4b\u0d1f\u0d4d", "place": "village", "population": "10000", "postal_code": "670009"}}, {"type": "node", "id": 245603543, "lat": 12.2920711, "lon": 75.410246, "tags": {"name": "Pulingom", "name:kn": "\u0caa\u0cc1\u0cb3\u0cbf\u0c82\u0c97\u0ccb\u0c82", "name:ml": "\u0d2a\u0d41\u0d33\u0d3f\u0d19\u0d4d\u0d19\u0d4b\u0d02", "place": "village", "postal_code": "670354", "wikidata": "Q7259344", "wikipedia": "en:Pulingome"}}, {"type": "node", "id": 585132483, "lat": 12.1345369, "lon": 75.2998123, "tags": {"name": "Mathamangalam", "place": "village", "wikidata": "Q28419235", "wikipedia": "en:Mathamangalam"}}, {"type": "node", "id": 585132485, "lat": 12.0709633, "lon": 75.3587779, "tags": {"name": "Vellave", "place": "village"}}, {"type": "node", "id": 585132487, "lat": 12.0631535, "lon": 75.3482255, "tags": {"name": "Mukkunnu", "place": "village", "wikidata": "Q15260199", "wikipedia": "en:Mukkunnu, Taliparamba"}}, {"type": "node", "id": 585132488, "lat": 12.0414743, "lon": 75.3938114, "tags": {"name": "Panakad", "place": "village"}}, {"type": "node", "id": 585132489, "lat": 11.994911, "lon": 75.4499807, "tags": {"name": "Mayyil", "name:ml": "\u0d2e\u0d2f\u0d4d\u0d2f\u0d3f\u0d7d", "place": "village"}}, {"type": "node", "id": 585132492, "lat": 12.0028058, "lon": 75.5279873, "tags": {"name": "Malappattam", "name:ml": "\u0d2e\u0d32\u0d2a\u0d4d\u0d2a\u0d1f\u0d4d\u0d1f\u0d02", "place": "village"}}, {"type": "node", "id": 585132495, "lat": 12.0226584, "lon": 75.5805627, "tags": {"name": "Blathur", "place": "village", "wikidata": "Q4925515", "wikimedia_commons": "Category:Blathur", "wikipedia": "en:Blathur"}}, {"type": "node", "id": 585132497, "lat": 12.0425118, "lon": 75.4472033, "tags": {"name": "Valakkai", "name:ml": "\u0d35\u0d33\u0d15\u0d4d\u0d15\u0d48", "place": "village"}}, {"type": "node", "id": 585132514, "lat": 12.0284738, "lon": 75.7072679, "tags": {"name": "Kunnoth", "name:ml": "\u0d15\u0d41\u0d28\u0d4d\u0d28\u0d4b\u0d24\u0d4d\u0d24\u0d4d", "place": "village"}}, {"type": "node", "id": 585132515, "lat": 12.1100546, "lon": 75.6075448, "tags": {"name": "Chandanakampara", "name:ml": "\u0d1a\u0d28\u0d4d\u0d26\u0d28\u0d15\u0d4d\u0d15\u0d3e\u0d02\u0d2a\u0d3e\u0d31", "place": "village", "wikidata": "Q2913905", "wikimedia_commons": "Category:Chandanakampara", "wikipedia": "en:Chandanakampara"}}, {"type": "node", "id": 585132518, "lat": 12.3123782, "lon": 75.4103079, "tags": {"name": "Palavayal", "name:ml": "\u0d2a\u0d3e\u0d32\u0d35\u0d2f\u0d32\u0d4d\u200d", "place": "village", "wikidata": "Q7126921", "wikipedia": "en:Palavayal"}}, {"type": "node", "id": 585133774, "lat": 12.2916182, "lon": 75.4373167, "tags": {"name": "Kozhichal", "name:ml": "\u0d15\u0d4b\u0d34\u0d3f\u0d1a\u0d4d\u0d1a\u0d3e\u0d7d", "place": "village"}}, {"type": "node", "id": 585134676, "lat": 11.8992067, "lon": 75.4145065, "tags": {"name": "Varam", "place": "village", "wikidata": "Q2449469"}}, {"type": "node", "id": 585134677, "lat": 11.9940232, "lon": 75.5496348, "tags": {"name": "Mamnikkunnu", "place": "village"}}, {"type": "node", "id": 585821735, "lat": 12.0981045, "lon": 75.4836514, "tags": {"name": "Chembanthotti", "name:ml": "\u0d1a\u0d46\u0d2e\u0d4d\u0d2a\u0d28\u0d4d\u0d24\u0d4a\u0d1f\u0d4d\u0d1f\u0d3f", "place": "village"}}, {"type": "node", "id": 585821743, "lat": 12.059806, "lon": 75.5740908, "tags": {"name": "Parakkadavu", "place": "village"}}, {"type": "node", "id": 585821745, "lat": 12.1418926, "lon": 75.5533349, "tags": {"alt_name:en": "Kudiyanmala", "name": "Kudianmala", "name:kn": "\u0c95\u0cc1\u0ca1\u0cbf\u0caf\u0ca8\u0ccd\u0cae\u0cb2", "name:ml": "\u0d15\u0d41\u0d1f\u0d3f\u0d2f\u0d3e\u0d28\u0d4d\u200d\u0d2e\u0d32", "place": "village", "wikidata": "Q6441697", "wikipedia": "en:Naduvil and Kudianmala"}}, {"type": "node", "id": 585821749, "lat": 12.1142751, "lon": 75.5642461, "tags": {"name": "Arangu", "place": "village"}}, {"type": "node", "id": 585821751, "lat": 12.1110126, "lon": 75.5542357, "tags": {"name": "Areekamala", "place": "village"}}, {"type": "node", "id": 585821754, "lat": 12.1457708, "lon": 75.5057376, "tags": {"name": "Vellad", "place": "village"}}, {"type": "node", "id": 585952612, "lat": 12.088871, "lon": 75.3570646, "tags": {"name": "Panagattoor", "name:ml": "\u0d2a\u0d28\u0d19\u0d4d\u0d19\u0d3e\u0d1f\u0d4d\u0d1f\u0d42\u0d7c", "place": "village"}}, {"type": "node", "id": 585952615, "lat": 12.1234005, "lon": 75.3865963, "tags": {"name": "Alathattu", "name:ml": "\u0d06\u0d32\u0d24\u0d4d\u0d24\u0d1f\u0d4d\u0d1f\u0d4d", "place": "village"}}, {"type": "node", "id": 585952622, "lat": 12.1993046, "lon": 75.3311889, "tags": {"name": "Pedena", "place": "village"}}, {"type": "node", "id": 585952624, "lat": 12.2577042, "lon": 75.4850089, "tags": {"name": "Arivilanjapoil", "place": "village"}}, {"type": "node", "id": 585952628, "lat": 12.2296707, "lon": 75.4814552, "tags": {"name": "Karthikapuram", "place": "village"}}, {"type": "node", "id": 585952631, "lat": 12.2394969, "lon": 75.4829261, "tags": {"name": "Udayagiri", "name:ml": "\u0d09\u0d26\u0d2f\u0d17\u0d3f\u0d30\u0d3f", "place": "village", "wikidata": "Q7876998", "wikipedia": "en:Udayagiri, Kerala"}}, {"type": "node", "id": 585952634, "lat": 12.2726914, "lon": 75.4707412, "tags": {"name": "Josegiri", "name:ml": "\u0d1c\u0d4b\u0d38\u0d4d\u0d17\u0d3f\u0d30\u0d3f", "place": "village"}}, {"type": "node", "id": 585952637, "lat": 12.2403162, "lon": 75.4999335, "tags": {"name": "Mampoyil", "name:ml": "\u0d2e\u0d3e\u0d2e\u0d4d\u0d2a\u0d4a\u0d2f\u0d3f\u0d32\u0d4d\u200d", "place": "village"}}, {"type": "node", "id": 585952640, "lat": 12.222978, "lon": 75.5073265, "tags": {"alt_name:en": "Mankadavu", "name": "Manakadavu", "name:ml": "\u0d2e\u0d23\u0d15\u0d4d\u0d15\u0d1f\u0d35\u0d4d", "place": "village"}}, {"type": "node", "id": 585952643, "lat": 12.1438006, "lon": 75.5915981, "tags": {"name": "Vanchiyam", "name:ml": "\u0d35\u0d3e\u0d1e\u0d4d\u0d1a\u0d3f\u0d2f\u0d02", "place": "village"}}, {"type": "node", "id": 585952648, "lat": 12.3044544, "lon": 75.3733906, "tags": {"name": "Kannivayal", "place": "village"}}, {"type": "node", "id": 585952663, "lat": 12.3440042, "lon": 75.4109546, "tags": {"name": "Thayyeni", "name:ml": "\u0d24\u0d46\u0d2f\u0d4d\u0d2f\u0d47\u0d28\u0d3f", "place": "village"}}, {"type": "node", "id": 586008300, "lat": 12.2881608, "lon": 75.2995769, "tags": {"name": "Moukode", "name:ml": "\u0d2e\u0d57\u0d15\u0d4d\u0d15\u0d4b\u0d1f\u0d4d", "place": "village"}}, {"type": "node", "id": 586008303, "lat": 12.0938997, "lon": 75.654879, "tags": {"name": "Manikadavu", "place": "village"}}, {"type": "node", "id": 586008305, "lat": 12.1450508, "lon": 75.6234436, "tags": {"name": "Sasipara", "place": "village"}}, {"type": "node", "id": 586008308, "lat": 12.1390455, "lon": 75.6316408, "tags": {"alt_name:en": "Kanjirakolli", "name": "Kanjirakolly", "name:ml": "\u0d15\u0d3e\u0d1e\u0d4d\u0d1e\u0d3f\u0d30\u0d15\u0d4d\u0d15\u0d4a\u0d32\u0d4d\u0d32\u0d3f", "place": "village"}}, {"type": "node", "id": 586021844, "lat": 12.3213171, "lon": 75.3590275, "tags": {"name": "Chittarikkal", "name:kn": "\u0c9a\u0cbf\u0ca4\u0ccd\u0ca4\u0cbe\u0cb0\u0cbf\u0c95\u0ccd\u0c95\u0cb2\u0ccd", "name:ml": "\u0d1a\u0d3f\u0d31\u0d4d\u0d31\u0d3e\u0d30\u0d3f\u0d15\u0d4d\u0d15\u0d3e\u0d7d", "place": "village", "wikidata": "Q5102437", "wikipedia": "en:Chittarikkal"}}, {"type": "node", "id": 587633196, "lat": 12.208918, "lon": 75.412032, "tags": {"name": "Therthalli", "name:ml": "\u0d24\u0d47\u0d30\u0d4d\u200d\u0d24\u0d4d\u0d24\u0d32\u0d4d\u0d32\u0d3f", "place": "village"}}, {"type": "node", "id": 587634507, "lat": 11.9794763, "lon": 75.3730617, "tags": {"name": "Mangattuparamba", "name:ml": "\u0d2e\u0d3e\u0d19\u0d4d\u0d19\u0d3e\u0d1f\u0d4d\u0d1f\u0d41\u0d2a\u0d31\u0d2e\u0d4d\u0d2a\u0d4d", "place": "village"}}, {"type": "node", "id": 587634510, "lat": 11.9982888, "lon": 75.3710844, "tags": {"name": "Bakkalam", "name:ml": "\u0d2c\u0d15\u0d4d\u0d15\u0d33\u0d02", "place": "village"}}, {"type": "node", "id": 588369519, "lat": 12.260815, "lon": 75.451659, "tags": {"name": "Thabore", "place": "village", "wikidata": "Q24911958", "wikimedia_commons": "Category:Thabore", "wikipedia": "en:Thabore"}}, {"type": "node", "id": 588369545, "lat": 12.1371083, "lon": 75.3666401, "tags": {"name": "Eriyam", "name:ml": "\u0d0e\u0d30\u0d3f\u0d2f\u0d02", "place": "village"}}, {"type": "node", "id": 588369546, "lat": 12.154442, "lon": 75.347952, "tags": {"name": "Koyipra", "place": "village"}}, {"type": "node", "id": 588369547, "lat": 12.176418, "lon": 75.359863, "tags": {"name": "Vellora", "name:ml": "\u0d35\u0d46\u0d33\u0d4d\u0d33\u0d4b\u0d31", "place": "village", "wikidata": "Q7919205", "wikipedia": "en:Vellora"}}, {"type": "node", "id": 588369548, "lat": 12.18275, "lon": 75.412445, "tags": {"name": "Eruvatty", "name:ml": "\u0d0e\u0d30\u0d41\u0d35\u0d1f\u0d4d\u0d1f\u0d3f", "place": "village", "wikidata": "Q5395987", "wikimedia_commons": "Category:Eruvatty", "wikipedia": "en:Eruvatty"}}, {"type": "node", "id": 588369549, "lat": 12.1356327, "lon": 75.3636526, "tags": {"name": "Alakkad", "name:ml": "\u0d06\u0d32\u0d15\u0d4d\u0d15\u0d3e\u0d1f\u0d4d", "place": "village"}}, {"type": "node", "id": 588369570, "lat": 12.247504, "lon": 75.357823, "tags": {"name": "Thattummal", "name:ml": "\u0d24\u0d4b\u0d1f\u0d4d\u0d1f\u0d41\u0d2e\u0d4d\u0d2e\u0d32\u0d4d\u200d", "place": "village"}}, {"type": "node", "id": 588369606, "lat": 12.070157, "lon": 75.345591, "tags": {"name": "Kutyeri", "place": "village"}}, {"type": "node", "id": 588369607, "lat": 12.2538482, "lon": 75.3352461, "tags": {"name": "Padiyottuchal", "name:ml": "\u0d2a\u0d3e\u0d1f\u0d3f\u0d2f\u0d4b\u0d1f\u0d4d\u0d1f\u0d41\u0d1a\u0d3e\u0d7d", "place": "village"}}, {"type": "node", "id": 588369613, "lat": 12.236952, "lon": 75.326181, "tags": {"name": "Ummarapoyil", "name:ml": "\u0d09\u0d2e\u0d4d\u0d2e\u0d31\u0d2a\u0d4d\u0d2a\u0d4a\u0d2f\u0d3f\u0d32\u0d4d\u200d", "place": "village"}}, {"type": "node", "id": 588369615, "lat": 12.107873, "lon": 75.364975, "tags": {"name": "Arippambra", "name:ml": "\u0d05\u0d30\u0d3f\u0d2a\u0d4d\u0d2a\u0d31\u0d2e\u0d4d\u0d2a\u0d4d", "place": "village"}}, {"type": "node", "id": 588369634, "lat": 12.138741, "lon": 75.402514, "tags": {"name": "Madomthattu", "name:ml": "\u0d2e\u0d20\u0d02\u0d24\u0d1f\u0d4d\u0d1f\u0d4d", "place": "village"}}, {"type": "node", "id": 588369652, "lat": 12.126429, "lon": 75.337317, "tags": {"name": "Paravoor", "place": "village"}}, {"type": "node", "id": 588369655, "lat": 12.183688, "lon": 75.3209013, "tags": {"name": "Olayambadi", "name:ml": "\u0d13\u0d32\u0d3f\u0d2f\u0d3e\u0d2e\u0d4d\u0d2a\u0d3e\u0d1f\u0d3f", "place": "village"}}, {"type": "node", "id": 588369669, "lat": 12.187314, "lon": 75.337492, "tags": {"name": "Peruvamba", "place": "village"}}, {"type": "node", "id": 588369670, "lat": 12.124223, "lon": 75.312938, "tags": {"name": "Panappuzha", "place": "village"}}, {"type": "node", "id": 588369671, "lat": 12.170889, "lon": 75.308131, "tags": {"name": "Kannadipoyil", "name:ml": "\u0d15\u0d23\u0d4d\u0d23\u0d3e\u0d1f\u0d3f\u0d2a\u0d4d\u0d2a\u0d4a\u0d2f\u0d3f\u0d32\u0d4d\u200d", "place": "village"}}, {"type": "node", "id": 588369688, "lat": 12.2101743, "lon": 75.3568789, "tags": {"name": "Kakkara", "name:ml": "\u0d15\u0d15\u0d4d\u0d15\u0d30", "place": "village"}}, {"type": "node", "id": 588369939, "lat": 12.098362, "lon": 75.294499, "tags": {"name": "Chandapura", "place": "village"}}, {"type": "node", "id": 588370033, "lat": 12.151386, "lon": 75.307333, "tags": {"name": "Kuttoor", "name:ml": "\u0d15\u0d41\u0d31\u0d4d\u0d31\u0d42\u0d7c", "place": "village", "wikidata": "Q6448611", "wikipedia": "en:Kuttur (Thrissur)"}}, {"type": "node", "id": 589982321, "lat": 12.28037, "lon": 75.3268107, "tags": {"name": "Kamballur", "name:ml": "\u0d15\u0d2e\u0d4d\u0d2a\u0d32\u0d4d\u0d32\u0d42\u0d7c", "place": "village"}}, {"type": "node", "id": 589982402, "lat": 12.295101, "lon": 75.345991, "tags": {"name": "Kadumeni", "place": "village"}}, {"type": "node", "id": 589982456, "lat": 12.302496, "lon": 75.365302, "tags": {"name": "Nallompuzha", "name:ml": "\u0d28\u0d32\u0d4d\u0d32\u0d4b\u0d02\u0d2a\u0d41\u0d34", "place": "village"}}, {"type": "node", "id": 589982508, "lat": 12.324788, "lon": 75.298008, "tags": {"name": "Mangode", "place": "village"}}, {"type": "node", "id": 589982528, "lat": 12.323247, "lon": 75.309462, "tags": {"alt_name:en": "Narkilakkad", "name": "Narkilakkadu", "name:ml": "\u0d28\u0d3e\u0d7c\u0d15\u0d4d\u0d15\u0d3f\u0d32\u0d15\u0d4d\u0d15\u0d3e\u0d1f\u0d4d", "place": "village"}}, {"type": "node", "id": 589982585, "lat": 12.337323, "lon": 75.313077, "tags": {"name": "Elerithattu", "name:ml": "\u0d0e\u0d33\u0d47\u0d30\u0d3f\u0d24\u0d4d\u0d24\u0d1f\u0d4d\u0d1f\u0d4d", "place": "village", "wikidata": "Q5359453", "wikimedia_commons": "Category:Elerithattu", "wikipedia": "en:Elerithattu"}}, {"type": "node", "id": 589982624, "lat": 12.327306, "lon": 75.313144, "tags": {"name": "Varakkad", "place": "village"}}, {"type": "node", "id": 593185153, "lat": 12.026781, "lon": 75.309091, "tags": {"name": "Pattuvam", "name:ml": "\u0d2a\u0d1f\u0d4d\u0d1f\u0d41\u0d35\u0d02", "place": "village", "wikidata": "Q7148689", "wikipedia": "en:Pattuvam"}}, {"type": "node", "id": 593185189, "lat": 12.024452, "lon": 75.328479, "tags": {"name": "Kulakkatuvayal", "name:ml": "\u0d15\u0d41\u0d33\u0d15\u0d4d\u0d15\u0d3e\u0d1f\u0d4d\u0d1f\u0d41\u0d35\u0d2f\u0d7d", "place": "village"}}, {"type": "node", "id": 598915636, "lat": 12.1501402, "lon": 75.4690776, "tags": {"name": "Thazhathangadi", "name:ml": "\u0d24\u0d3e\u0d34\u0d24\u0d4d\u0d24\u0d19\u0d4d\u0d19\u0d3e\u0d1f\u0d3f", "place": "village", "postal_code": "670582"}}, {"type": "node", "id": 598915933, "lat": 12.1661645, "lon": 75.3913341, "tags": {"name": "Perumbadavu", "name:ml": "\u0d2a\u0d46\u0d30\u0d41\u0d2e\u0d4d\u0d2a\u0d1f\u0d35\u0d4d", "place": "village"}}, {"type": "node", "id": 603013999, "lat": 12.217153, "lon": 75.3383566, "tags": {"name": "Kadamkunnu", "place": "village"}}, {"type": "node", "id": 610225354, "lat": 12.1205637, "lon": 75.4371382, "tags": {"alt_name": "Padappengadu", "name": "Padappengad", "name:ml": "\u0d2a\u0d1f\u0d2a\u0d4d\u0d2a\u0d47\u0d19\u0d4d\u0d19\u0d3e\u0d1f\u0d4d", "place": "village"}}, {"type": "node", "id": 633095139, "lat": 11.99058, "lon": 75.480917, "tags": {"name": "Pavannur Motta", "place": "village"}}, {"type": "node", "id": 633095141, "lat": 11.916195, "lon": 75.432185, "tags": {"name": "Chappa", "name:ml": "\u0d1a\u0d3e\u0d2a\u0d4d\u0d2a", "place": "village"}}, {"type": "node", "id": 633095143, "lat": 11.964319, "lon": 75.454527, "tags": {"name": "Kadoor", "place": "village"}}, {"type": "node", "id": 633095144, "lat": 11.8994566, "lon": 75.4201637, "tags": {"name": "Valiyannur", "place": "village"}}, {"type": "node", "id": 633095164, "lat": 11.982682, "lon": 75.496427, "tags": {"name": "Ulumbakkunnu", "place": "village"}}, {"type": "node", "id": 633095165, "lat": 11.9225288, "lon": 75.4769756, "tags": {"ele": "12", "name": "Koodali", "name:ml": "\u0d15\u0d42\u0d1f\u0d3e\u0d33\u0d3f", "place": "village", "population": "15236"}}, {"type": "node", "id": 633095166, "lat": 11.985991, "lon": 75.485278, "tags": {"name": "Patthammile", "place": "village"}}, {"type": "node", "id": 633095172, "lat": 11.9174288, "lon": 75.4638043, "tags": {"name": "Kanhirode", "name:ml": "\u0d15\u0d3e\u0d1e\u0d4d\u0d1e\u0d3f\u0d30\u0d4b\u0d1f\u0d4d", "place": "village"}}, {"type": "node", "id": 633095173, "lat": 11.940353, "lon": 75.50456, "tags": {"name": "Kololam", "name:ml": "\u0d15\u0d4a\u0d33\u0d4b\u0d33\u0d02", "place": "village", "wikidata": "Q6427482"}}, {"type": "node", "id": 633095175, "lat": 11.978705, "lon": 75.504691, "tags": {"name": "Chola", "name:ml": "\u0d1a\u0d4b\u0d32", "place": "village"}}, {"type": "node", "id": 633095177, "lat": 11.966575, "lon": 75.494577, "tags": {"name": "Kararamba", "place": "village"}}, {"type": "node", "id": 633095179, "lat": 11.955136, "lon": 75.458667, "tags": {"name": "Cheruvathala Motta", "place": "village"}}, {"type": "node", "id": 633095224, "lat": 11.95849, "lon": 75.4742671, "tags": {"name": "Kuttiattoor", "name:ml": "\u0d15\u0d41\u0d31\u0d4d\u0d31\u0d4d\u0d2f\u0d3e\u0d1f\u0d4d\u0d1f\u0d42\u0d7c", "place": "village", "wikidata": "Q6448589"}}, {"type": "node", "id": 633095267, "lat": 11.953795, "lon": 75.447072, "tags": {"name": "Chekkikkulam", "place": "village"}}, {"type": "node", "id": 633095268, "lat": 11.980288, "lon": 75.476111, "tags": {"name": "Pashassi", "place": "village"}}, {"type": "node", "id": 633188607, "lat": 11.9563204, "lon": 75.4999736, "tags": {"junction": "yes", "name": "Vaduvankulam", "name:ml": "\u0d35\u0d1f\u0d41\u0d35\u0d7b\u0d15\u0d41\u0d33\u0d02", "place": "village"}}, {"type": "node", "id": 650128654, "lat": 12.175139, "lon": 75.539029, "tags": {"name": "Paithalmala", "name:ml": "\u0d2a\u0d48\u0d24\u0d32\u0d4d\u200d\u0d2e\u0d32", "place": "village", "wikidata": "Q7908895", "wikimedia_commons": "Category:Paithalmala", "wikipedia": "en:Paithalmala"}}, {"type": "node", "id": 650128656, "lat": 12.3042797, "lon": 75.4248868, "tags": {"name": "Kallukayam", "name:ml": "\u0d15\u0d32\u0d4d\u0d32\u0d41\u0d15\u0d2f\u0d02", "place": "village"}}, {"type": "node", "id": 650128658, "lat": 12.181765, "lon": 75.548105, "tags": {"name": "Manjapullu", "name:ml": "\u0d2e\u0d1e\u0d4d\u0d1e\u0d2a\u0d41\u0d32\u0d4d\u0d32\u0d4d", "place": "village"}}, {"type": "node", "id": 650128659, "lat": 12.242412, "lon": 75.518451, "tags": {"name": "Vellattukolly", "place": "village"}}, {"type": "node", "id": 650128660, "lat": 12.271929, "lon": 75.428845, "tags": {"name": "Kottathalachi", "place": "village"}}, {"type": "node", "id": 650128661, "lat": 12.291218, "lon": 75.451141, "tags": {"name": "Rajagiri", "name:ml": "\u0d30\u0d3e\u0d1c\u0d17\u0d3f\u0d30\u0d3f", "place": "village"}}, {"type": "node", "id": 650128662, "lat": 12.28671, "lon": 75.426563, "tags": {"name": "Edavaramba", "place": "village"}}, {"type": "node", "id": 650128667, "lat": 12.3285339, "lon": 75.3998029, "tags": {"name": "Thayyeni", "name:ml": "\u0d24\u0d46\u0d2f\u0d4d\u0d2f\u0d47\u0d28\u0d3f", "place": "village"}}, {"type": "node", "id": 650141380, "lat": 12.2509108, "lon": 75.4196737, "tags": {"name": "Thirumeni", "place": "village", "wikidata": "Q7785357", "wikipedia": "en:Thirumeni"}}, {"type": "node", "id": 665542431, "lat": 12.2583769, "lon": 75.6450396, "tags": {"alt_name": "Kakkumbe", "name": "Kakkabe", "name:kn": "\u0c95\u0c95\u0ccd\u0c95\u0cac\u0cc6", "name:ml": "\u0d15\u0d15\u0d4d\u0d15\u0d2c\u0d46", "place": "village"}}, {"type": "node", "id": 838463170, "lat": 12.3058737, "lon": 75.6884619, "tags": {"is_in": "India, Karnataka", "name": "Napoklu", "name:kn": "\u0ca8\u0cbe\u0caa\u0ccb\u0c95\u0ccd\u0cb2\u0cc1", "name:ml": "\u0d28\u0d3e\u0d2a\u0d4b\u0d15\u0d4d\u0d32\u0d41", "place": "village"}}, {"type": "node", "id": 1111349622, "lat": 11.9848532, "lon": 75.4211347, "tags": {"name": "Padikkunnu", "place": "village"}}, {"type": "node", "id": 2417946788, "lat": 12.2711347, "lon": 75.7173463, "tags": {"name": "Parane", "name:kn": "\u0caa\u0cb0\u0ca3\u0cc6", "place": "village"}}, {"type": "node", "id": 2417977000, "lat": 12.2183947, "lon": 75.7139521, "tags": {"name": "Karada", "name:kn": "\u0c95\u0cb0\u0ca1", "name:ml": "\u0d15\u0d30\u0d1f", "place": "village"}}, {"type": "node", "id": 2417977009, "lat": 12.2280123, "lon": 75.6872756, "tags": {"name": "Nariyandada", "name:kn": "\u0ca8\u0cb0\u0cbf\u0caf\u0c82\u0ca6\u0ca1", "name:kn:iso15919": "Nariyanda\u1e0da", "name:ml": "\u0d28\u0d30\u0d3f\u0d2f\u0d28\u0d4d\u0d24\u0d1f", "place": "village"}}, {"type": "node", "id": 2417977036, "lat": 12.2401624, "lon": 75.6552984, "tags": {"name": "Kabbinakadu", "name:kn": "\u0c95\u0cac\u0ccd\u0cac\u0cbf\u0ca8\u0c95\u0cbe\u0ca1\u0cc1", "name:ml": "\u0d15\u0d2c\u0d4d\u0d2c\u0d3f\u0d28\u0d15\u0d4d\u0d15\u0d3e\u0d1f\u0d4d", "place": "village"}}, {"type": "node", "id": 2417977171, "lat": 12.2380129, "lon": 75.6732383, "tags": {"name": "Marandoda", "name:kn": "\u0cae\u0cb0\u0c82\u0ca6\u0ccb\u0ca1", "name:ml": "\u0d2e\u0d30\u0d28\u0d4d\u0d26\u0d4b\u0d1f", "place": "village"}}, {"type": "node", "id": 3325663932, "lat": 12.1969177, "lon": 75.7107609, "tags": {"name": "Palangala", "name:kn": "\u0caa\u0cbe\u0cb2\u0c82\u0c97\u0cbe\u0cb2", "name:kn:iso15919": "P\u0101la\u1e45g\u0101la", "name:ml": "\u0d2a\u0d3e\u0d32\u0d19\u0d4d\u0d15\u0d3e\u0d32", "place": "village"}}, {"type": "node", "id": 3493441913, "lat": 12.3208096, "lon": 75.6501472, "tags": {"name": "Yemmemadu", "name:kn": "\u0c8e\u0cae\u0ccd\u0cae\u0cc6\u0cae\u0cbe\u0ca1\u0cc1", "name:kn:iso15919": "Emmem\u0101\u1e0du", "name:ml": "\u0d0e\u0d30\u0d41\u0d2e\u0d3e\u0d1f\u0d4d", "place": "village"}}, {"type": "node", "id": 3773149794, "lat": 12.063734, "lon": 75.6259418, "tags": {"name": "Kunjiparamba", "name:ml": "\u0d15\u0d41\u0d1e\u0d4d\u0d1e\u0d3f\u0d2a\u0d31\u0d2e\u0d4d\u0d2a", "place": "village"}}, {"type": "node", "id": 3844409078, "lat": 12.0854325, "lon": 75.7148857, "tags": {"name": "Thottipalam", "place": "village"}}, {"type": "node", "id": 3925814273, "lat": 12.2494136, "lon": 75.7116737, "tags": {"name": "Bavali", "name:kn": "\u0cac\u0cbe\u0cb5\u0cb2\u0cbf", "place": "village"}}, {"type": "node", "id": 3925814281, "lat": 12.2640526, "lon": 75.655462, "tags": {"name": "Kunjila", "name:kn": "\u0c95\u0cc1\u0c82\u0c9c\u0cbf\u0cb2", "name:kn:iso15919": "Ku\u00f1jila", "name:ml": "\u0d15\u0d41\u0d1e\u0d4d\u0d1a\u0d3f\u0d32", "place": "village"}}, {"type": "node", "id": 4040125932, "lat": 11.8972585, "lon": 75.5841741, "tags": {"name": "Uruvachal", "name:ml": "\u0d09\u0d31\u0d41\u0d35\u0d1a\u0d4d\u0d1a\u0d3e\u0d32\u0d4d\u200d", "place": "village"}}, {"type": "node", "id": 4047685737, "lat": 11.9098221, "lon": 75.6092143, "tags": {"name": "Sivapuram", "name:ml": "\u0d36\u0d3f\u0d35\u0d2a\u0d41\u0d30\u0d02", "place": "village", "wikidata": "Q7532409"}}, {"type": "node", "id": 4085423452, "lat": 12.3271413, "lon": 75.6160497, "tags": {"name": "Ballamavati", "name:kn": "\u0cac\u0cb2\u0ccd\u0cb2\u0cae\u0cbe\u0cb5\u0c9f\u0cbf", "name:kn:iso15919": "Ballam\u0101va\u1e6di", "name:ml": "\u0d2c\u0d32\u0d4d\u0d32\u0d2e\u0d3e\u0d35\u0d24\u0d3f", "place": "village"}}, {"type": "node", "id": 4354456690, "lat": 12.0414669, "lon": 75.6428786, "tags": {"name": "Nuchiyad", "name:kn": "\u0ca8\u0cc1\u0c9a\u0ccd\u0c9a\u0cbf\u0caf\u0cbe\u0ca6\u0ccd", "name:ml": "\u0d28\u0d41\u0d1a\u0d4d\u0d1a\u0d3f\u0d2f\u0d3e\u0d1f\u0d4d", "place": "village", "population": "12362", "wikidata": "Q7067897", "wikipedia": "en:Nuchiyad"}}, {"type": "node", "id": 4437841088, "lat": 12.0432625, "lon": 75.4898961, "tags": {"name": "Chengalai", "place": "village", "wikidata": "Q3525338", "wikipedia": "en:Chengalai"}}, {"type": "node", "id": 5876143988, "lat": 12.0942463, "lon": 75.3495669, "tags": {"name": "Vayad", "name:ml": "\u0d35\u0d3e\u0d2f\u0d3e\u0d1f\u0d4d", "place": "village"}}, {"type": "node", "id": 5876441882, "lat": 12.0975272, "lon": 75.3335415, "tags": {"name": "Puliyool", "place": "village"}}, {"type": "node", "id": 5876448153, "lat": 12.0613378, "lon": 75.336138, "tags": {"name": "Chudala", "name:ml": "\u0d1a\u0d41\u0d1f\u0d32", "place": "village"}}, {"type": "node", "id": 7059956990, "lat": 11.9387237, "lon": 75.5561985, "tags": {"name": "Velliyamparambu", "name:ml": "\u0d35\u0d46\u0d33\u0d4d\u0d33\u0d3f\u0d2f\u0d3e\u0d2e\u0d4d\u0d2a\u0d31\u0d2e\u0d4d\u0d2a\u0d4d", "place": "village"}}, {"type": "node", "id": 7061120774, "lat": 11.9574628, "lon": 75.5474643, "tags": {"name": "Pulpakkari", "name:ml": "\u0d2a\u0d41\u0d32\u0d4d\u0d2a\u0d15\u0d4d\u0d15\u0d30\u0d3f", "place": "village"}}, {"type": "node", "id": 7070248644, "lat": 11.9648698, "lon": 75.5498291, "tags": {"name": "Nayikkali", "name:ml": "\u0d28\u0d3e\u0d2f\u0d3f\u0d15\u0d4d\u0d15\u0d3e\u0d32\u0d3f", "place": "village"}}, {"type": "node", "id": 7072049311, "lat": 11.9719035, "lon": 75.5619025, "tags": {"name": "Mannur", "place": "village"}}, {"type": "node", "id": 7470286489, "lat": 11.9978761, "lon": 75.6280079, "tags": {"name": "Padiyoor", "name:ml": "\u0d2a\u0d1f\u0d3f\u0d2f\u0d42\u0d7c", "place": "village", "wikidata": "Q13113048", "wikipedia": "en:Padiyoor"}}, {"type": "node", "id": 7470330322, "lat": 11.9979102, "lon": 75.6231182, "tags": {"name": "puthanparamb", "place": "village"}}, {"type": "node", "id": 7470330323, "lat": 11.9950662, "lon": 75.6181722, "tags": {"name": "poovam", "place": "village"}}, {"type": "node", "id": 7470330324, "lat": 11.9874995, "lon": 75.5994826, "tags": {"name": "Kuyiloor", "place": "village"}}, {"type": "node", "id": 7470330325, "lat": 11.9847183, "lon": 75.5807501, "tags": {"name": "Perumannu", "place": "village"}}, {"type": "node", "id": 7470330326, "lat": 11.9842775, "lon": 75.5708473, "tags": {"name": "Pedayangode", "place": "village"}}, {"type": "node", "id": 7470330327, "lat": 11.9862506, "lon": 75.539208, "tags": {"name": "Ayippuzha", "place": "village"}}, {"type": "node", "id": 7470330328, "lat": 11.9758709, "lon": 75.531494, "tags": {"name": "Kolappa", "place": "village"}}, {"type": "node", "id": 7470330329, "lat": 11.9696576, "lon": 75.5281895, "tags": {"name": "Chitrari", "name:ml": "\u0d1a\u0d3f\u0d24\u0d4d\u0d30\u0d3e\u0d30\u0d3f", "place": "village"}}, {"type": "node", "id": 7470330330, "lat": 11.9604948, "lon": 75.5178469, "tags": {"name": "Nayattupara", "name:ml": "\u0d28\u0d3e\u0d2f\u0d3e\u0d1f\u0d4d\u0d1f\u0d41\u0d2a\u0d3e\u0d31", "place": "village"}}, {"type": "node", "id": 7470330331, "lat": 11.9524338, "lon": 75.5155616, "tags": {"name": "Muttannur", "name:ml": "\u0d2e\u0d41\u0d1f\u0d4d\u0d1f\u0d28\u0d4d\u0d28\u0d42\u0d7c", "place": "village"}}, {"type": "node", "id": 7470330332, "lat": 11.9232737, "lon": 75.4890829, "tags": {"name": "Kumbam", "place": "village"}}, {"type": "node", "id": 7470932875, "lat": 12.0046401, "lon": 75.5418167, "tags": {"name": "Peruvalath Paramb", "place": "village"}}, {"type": "node", "id": 7471402400, "lat": 12.0556694, "lon": 75.5488206, "tags": {"name": "Eicheri", "place": "village"}}, {"type": "node", "id": 7475400521, "lat": 12.3155644, "lon": 75.3827427, "tags": {"name": "Kulineer", "place": "village"}}, {"type": "node", "id": 7477448623, "lat": 12.1526314, "lon": 75.4639992, "tags": {"name": "Vayattuparamba", "place": "village", "postal_code": "670582"}}, {"type": "node", "id": 7477526114, "lat": 12.1725099, "lon": 75.4657349, "tags": {"name": "Kalladi", "name:ml": "\u0d15\u0d32\u0d4d\u0d32\u0d1f\u0d3f", "place": "village"}}, {"type": "node", "id": 7477785283, "lat": 11.947185, "lon": 75.4801996, "tags": {"name": "Vesala", "place": "village"}}, {"type": "node", "id": 7479869479, "lat": 12.1398931, "lon": 75.4676193, "tags": {"name": "Thavukunnu", "place": "village"}}, {"type": "node", "id": 7486530976, "lat": 12.3117074, "lon": 75.3990682, "tags": {"name": "Malankadavu", "place": "village"}}, {"type": "node", "id": 7490195905, "lat": 12.3275056, "lon": 75.3800158, "tags": {"name": "Cheramkallu", "place": "village"}}, {"type": "node", "id": 7490195907, "lat": 12.3314144, "lon": 75.3760875, "tags": {"name": "Eettithattu", "place": "village"}}, {"type": "node", "id": 7714533362, "lat": 12.2487597, "lon": 75.317502, "tags": {"name": "Vayakkara", "name:ml": "\u0d35\u0d2f\u0d15\u0d4d\u0d15\u0d30", "place": "village", "wikidata": "Q7917548", "wikipedia": "en:Vayakkara"}}, {"type": "node", "id": 7714533363, "lat": 12.2254409, "lon": 75.3145194, "tags": {"name": "Peringome", "name:ml": "\u0d2a\u0d46\u0d30\u0d3f\u0d19\u0d4d\u0d19\u0d4b\u0d02", "place": "village", "wikidata": "Q7168600", "wikipedia": "en:Peringome"}}, {"type": "node", "id": 7714741056, "lat": 12.1277292, "lon": 75.4119372, "tags": {"name": "Chapparapadavu", "name:ml": "\u0d1a\u0d2a\u0d4d\u0d2a\u0d3e\u0d30\u0d2a\u0d4d\u0d2a\u0d1f\u0d35\u0d4d", "place": "village"}}, {"type": "node", "id": 7714773858, "lat": 12.0619422, "lon": 75.3251517, "tags": {"name": "Pariyaram", "place": "village"}}, {"type": "node", "id": 7714801456, "lat": 11.9973332, "lon": 75.2954473, "tags": {"name": "Cherukunnu", "place": "village"}}, {"type": "node", "id": 7716129687, "lat": 12.0751618, "lon": 75.5592441, "tags": {"name": "Eruvessy", "place": "village"}}, {"type": "node", "id": 7716167416, "lat": 12.0169909, "lon": 75.4886913, "tags": {"name": "Malappattam", "place": "village"}}, {"type": "node", "id": 7717058875, "lat": 11.9738162, "lon": 75.3584432, "tags": {"name": "Kalliasseri", "name:ml": "\u0d15\u0d32\u0d4d\u0d32\u0d4d\u0d2f\u0d3e\u0d36\u0d4d\u0d36\u0d47\u0d30\u0d3f", "place": "village"}}, {"type": "node", "id": 7717142753, "lat": 11.9264778, "lon": 75.4392528, "tags": {"name": "Munderi", "place": "village"}}, {"type": "node", "id": 7810515289, "lat": 11.9517484, "lon": 75.5642505, "tags": {"name": "Mettadi", "name:ml": "\u0d2e\u0d47\u0d31\u0d4d\u0d31\u0d1f\u0d3f", "place": "village"}}, {"type": "node", "id": 7810515290, "lat": 11.9535065, "lon": 75.5696042, "tags": {"name": "Maruthayi Paalam", "name:ml": "\u0d2e\u0d30\u0d41\u0d24\u0d3e\u0d2f\u0d3f \u0d2a\u0d3e\u0d32\u0d02", "place": "village"}}, {"type": "node", "id": 7810515291, "lat": 11.9506306, "lon": 75.5746575, "tags": {"name": "Maruthayi", "name:ml": "\u0d2e\u0d30\u0d41\u0d24\u0d3e\u0d2f\u0d3f", "place": "village"}}, {"type": "node", "id": 7810515292, "lat": 11.9525461, "lon": 75.5557211, "tags": {"name": "Kiliyangad", "name:ml": "\u0d15\u0d3f\u0d33\u0d3f\u0d2f\u0d19\u0d3e\u0d1f\u0d4d", "place": "village"}}, {"type": "node", "id": 7810552409, "lat": 11.937253, "lon": 75.5722421, "tags": {"name": "Uthiyoor", "name:ml": "\u0d09\u0d24\u0d4d\u0d24\u0d3f\u0d2f\u0d42\u0d30\u0d4d\u200d", "place": "village"}}, {"type": "node", "id": 7810552410, "lat": 11.9442597, "lon": 75.5800962, "tags": {"name": "Kallur", "name:ml": "\u0d15\u0d32\u0d4d\u0d32\u0d42\u0d30\u0d4d\u200d", "place": "village"}}, {"type": "node", "id": 7826828701, "lat": 11.9288698, "lon": 75.5114056, "tags": {"name": "Edayannur", "name:ml": "\u0d0e\u0d1f\u0d2f\u0d28\u0d4d\u0d28\u0d42\u0d30\u0d4d\u200d", "place": "village"}}, {"type": "node", "id": 7826828702, "lat": 11.9280222, "lon": 75.5459337, "tags": {"name": "Nagavalavu", "name:ml": "\u0d28\u0d3e\u0d17\u0d35\u0d33\u0d35\u0d4d", "place": "village"}}, {"type": "node", "id": 7826828703, "lat": 11.9296886, "lon": 75.5267344, "tags": {"name": "Palayod", "name:ml": "\u0d2a\u0d3e\u0d32\u0d2f\u0d4b\u0d1f\u0d4d", "place": "village"}}, {"type": "node", "id": 7826828704, "lat": 11.9301833, "lon": 75.5672304, "tags": {"name": "Vayanthod", "name:ml": "\u0d35\u0d3e\u0d2f\u0d28\u0d4d\u0d24\u0d4b\u0d1f\u0d4d", "place": "village"}}, {"type": "node", "id": 7826828705, "lat": 11.9335729, "lon": 75.5846967, "tags": {"name": "Palott palli", "name:ml": "\u0d2a\u0d3e\u0d32\u0d4b\u0d1f\u0d4d\u0d1f\u0d4d \u0d2a\u0d33\u0d4d\u0d33\u0d3f", "place": "village"}}, {"type": "node", "id": 7849750672, "lat": 11.8982888, "lon": 75.3853258, "tags": {"name": "Puzhathi", "name:ml": "\u0d2a\u0d41\u0d34\u0d3e\u0d24\u0d3f", "place": "village"}}, {"type": "node", "id": 7897461636, "lat": 12.2108158, "lon": 75.4390141, "tags": {"name": "Rayarome", "place": "village"}}, {"type": "node", "id": 7948658441, "lat": 11.9145107, "lon": 75.4457867, "tags": {"name": "Kanachery", "place": "village"}}, {"type": "node", "id": 8763754086, "lat": 12.1961789, "lon": 75.3627478, "tags": {"name": "Kayapoyil", "name:ml": "\u0d15\u0d3e\u0d2f\u0d2a\u0d4d\u0d2a\u0d4a\u0d2f\u0d3f\u0d7d", "place": "village"}}, {"type": "node", "id": 8784320752, "lat": 12.2266651, "lon": 75.3646859, "tags": {"name": "kadukkaram", "place": "village"}}, {"type": "node", "id": 8919607349, "lat": 11.9748835, "lon": 75.7017266, "tags": {"name": "Payam", "name:ml": "\u0d2a\u0d3e\u0d2f\u0d02", "place": "village"}}, {"type": "node", "id": 10043493683, "lat": 12.0718436, "lon": 75.7075009, "tags": {"name": "Peratta", "name:ml": "\u0d2a\u0d47\u0d30\u0d1f\u0d4d\u0d1f", "place": "village"}}, {"type": "node", "id": 10824615371, "lat": 12.0853137, "lon": 75.3956703, "tags": {"name": "Poovam", "name:ml": "\u0d2a\u0d42\u0d35\u0d02", "place": "village"}}, {"type": "node", "id": 10824615383, "lat": 12.0922793, "lon": 75.3994088, "tags": {"name": "Elemperam", "name:ml": "\u0d0e\u0d33\u0d2e\u0d4d\u0d2a\u0d47\u0d30\u0d02", "place": "village"}}, {"type": "node", "id": 10824741845, "lat": 12.0610395, "lon": 75.3767925, "tags": {"name": "Andikkalam", "place": "village"}}, {"type": "node", "id": 10824741853, "lat": 12.0525652, "lon": 75.3730933, "tags": {"name": "Pushpagiri", "place": "village"}}, {"type": "node", "id": 10861639244, "lat": 12.1002331, "lon": 75.3646865, "tags": {"name": "Thiruvattoor", "name:ml": "\u0d24\u0d3f\u0d30\u0d41\u0d35\u0d1f\u0d4d\u0d1f\u0d42\u0d7c", "place": "village"}}, {"type": "node", "id": 10861639247, "lat": 12.1132228, "lon": 75.3676169, "tags": {"name": "Thotteekkal", "name:ml": "\u0d24\u0d4b\u0d1f\u0d4d\u0d1f\u0d40\u0d15\u0d4d\u0d15\u0d7d", "place": "village"}}, {"type": "node", "id": 10863460955, "lat": 12.0795635, "lon": 75.4639812, "tags": {"name": "Chalil Vayal", "place": "village"}}, {"type": "node", "id": 10869196867, "lat": 12.068314, "lon": 75.3818542, "tags": {"name": "Chenayannoor", "name:ml": "\u0d1a\u0d46\u0d28\u0d2f\u0d28\u0d4d\u0d28\u0d41\u0d7c", "place": "village"}}, {"type": "node", "id": 10869196868, "lat": 12.0696652, "lon": 75.3855424, "tags": {"name": "Kanhirangad", "name:ml": "\u0d15\u0d3e\u0d1e\u0d4d\u0d1e\u0d3f\u0d30\u0d19\u0d4d\u0d19\u0d3e\u0d1f\u0d4d", "place": "village"}}, {"type": "node", "id": 10901209119, "lat": 12.1143602, "lon": 75.4140796, "tags": {"name": "Methurumba", "place": "village"}}, {"type": "node", "id": 10907367698, "lat": 12.0150968, "lon": 75.3331038, "tags": {"name": "Ariyl", "place": "village"}}, {"type": "node", "id": 10945779971, "lat": 12.118117, "lon": 75.3954488, "tags": {"name": "Koovery", "name:ml": "\u0d15\u0d42\u0d35\u0d47\u0d30\u0d3f", "place": "village"}}, {"type": "node", "id": 10945779972, "lat": 12.1194771, "lon": 75.3974799, "tags": {"name": "Aivalappu", "name:ml": "\u0d10 \u0d35\u0d33\u0d2a\u0d4d\u0d2a\u0d4d", "place": "village"}}, {"type": "node", "id": 10945779973, "lat": 12.1219936, "lon": 75.3986887, "tags": {"name": "kakkadavu", "name:ml": "\u0d15\u0d3e\u0d15\u0d4d\u0d15\u0d1f\u0d35\u0d4d", "place": "village"}}, {"type": "node", "id": 10945779975, "lat": 12.1099162, "lon": 75.3814967, "tags": {"name": "Therandikkadavu", "name:ml": "\u0d24\u0d47\u0d31\u0d23\u0d4d\u0d1f\u0d3f\u0d15\u0d4d\u0d15\u0d1f\u0d35\u0d4d", "place": "village"}}, {"type": "node", "id": 10951135984, "lat": 12.0983158, "lon": 75.4050667, "tags": {"name": "Elemperam para", "name:ml": "\u0d0e\u0d33\u0d2e\u0d4d\u0d2a\u0d47\u0d30\u0d02 \u0d2a\u0d3e\u0d31", "place": "village"}}, {"type": "node", "id": 10957871293, "lat": 12.0991504, "lon": 75.3517331, "tags": {"name": "Aashari moola", "name:ml": "\u0d06\u0d36\u0d3e\u0d30\u0d3f \u0d2e\u0d42\u0d32", "place": "village"}}, {"type": "node", "id": 10982281686, "lat": 12.0222822, "lon": 75.3372686, "tags": {"name": "parapool", "name:ml": "\u0d2a\u0d31\u0d2a\u0d4d\u0d2a\u0d42\u0d7d", "place": "village"}}, {"type": "node", "id": 10989467368, "lat": 12.1193547, "lon": 75.3586437, "tags": {"name": "Avungum poyil", "name:ml": "\u0d06\u0d35\u0d41\u0d19\u0d4d\u0d19\u0d41\u0d02 \u0d2a\u0d4a\u0d2f\u0d3f\u0d7d", "place": "village"}}, {"type": "node", "id": 11236063196, "lat": 12.2133408, "lon": 75.3748966, "tags": {"name": "Vattiyera", "name:ml": "\u0d35\u0d1f\u0d4d\u0d1f\u0d3f\u0d2f\u0d47\u0d30", "place": "village"}}, {"type": "node", "id": 11236063197, "lat": 12.1529844, "lon": 75.3971315, "tags": {"name": "Kolarthotty", "name:ml": "\u0d15\u0d4b\u0d32\u0d3e\u0d7c\u0d24\u0d4d\u0d24\u0d4a\u0d1f\u0d4d\u0d1f\u0d3f", "place": "village"}}, {"type": "node", "id": 11236063198, "lat": 12.1647643, "lon": 75.407209, "tags": {"name": "Thalavil", "name:ml": "\u0d24\u0d32\u0d35\u0d3f\u0d7d", "place": "village"}}, {"type": "node", "id": 11238107884, "lat": 12.0356838, "lon": 75.3462568, "tags": {"name": "pulimparamba", "name:ml": "\u0d2a\u0d41\u0d33\u0d3f\u0d2e\u0d4d\u0d2a\u0d31\u0d2e\u0d4d\u0d2a", "place": "village"}}, {"type": "node", "id": 11292916041, "lat": 12.0610488, "lon": 75.3257981, "tags": {"name": "Koran peedika", "place": "village"}}, {"type": "node", "id": 11645456905, "lat": 12.0169699, "lon": 75.6922045}, {"type": "node", "id": 11645456906, "lat": 12.0159641, "lon": 75.6913527}, {"type": "node", "id": 11645456907, "lat": 12.0200494, "lon": 75.7010173}, {"type": "node", "id": 11645456908, "lat": 12.02308, "lon": 75.7002229}, {"type": "node", "id": 11645456909, "lat": 12.0241492, "lon": 75.698634}, {"type": "node", "id": 11645473642, "lat": 12.0150997, "lon": 75.6934116}, {"type": "node", "id": 11645473643, "lat": 12.0154315, "lon": 75.696068}, {"type": "node", "id": 11645473644, "lat": 12.0160719, "lon": 75.6967632}, {"type": "node", "id": 11645473645, "lat": 12.0163928, "lon": 75.6981453}, {"type": "node", "id": 11645473646, "lat": 12.0173788, "lon": 75.698066}, {"type": "node", "id": 11645473647, "lat": 12.0177, "lon": 75.6990132}, {"type": "node", "id": 11645473648, "lat": 12.0185499, "lon": 75.6994116}, {"type": "node", "id": 11645473649, "lat": 12.0228162, "lon": 75.6964865}, {"type": "node", "id": 11645473650, "lat": 12.0210466, "lon": 75.6965402}, {"type": "node", "id": 11645473651, "lat": 12.0215651, "lon": 75.695559}, {"type": "node", "id": 11645473652, "lat": 12.0213877, "lon": 75.6941709}, {"type": "node", "id": 11645473653, "lat": 12.0206736, "lon": 75.6936146}, {"type": "node", "id": 11645473654, "lat": 12.0198354, "lon": 75.6930001}, {"type": "node", "id": 11645473655, "lat": 12.0185741, "lon": 75.6928555}, {"type": "node", "id": 11645473656, "lat": 12.0148896, "lon": 75.6956207}, {"type": "node", "id": 11645473657, "lat": 12.0147984, "lon": 75.6920574}, {"type": "node", "id": 11645473658, "lat": 12.0233019, "lon": 75.6973753}, {"type": "node", "id": 11787482989, "lat": 12.078385, "lon": 75.6986765, "tags": {"name": "Kolithattu", "name:ml": "\u0d15\u0d4b\u0d33\u0d3f\u0d24\u0d4d\u0d24\u0d1f\u0d4d\u0d1f\u0d4d", "place": "village"}}, {"type": "way", "id": 1252857914, "nodes": [11645473649, 11645473650, 11645473651, 11645473652, 11645473653, 11645473654, 11645473655, 11645456905, 11645456906, 11645473657, 11645473642, 11645473656, 11645473643, 11645473644, 11645473645, 11645473646, 11645473647, 11645473648, 11645456907, 11645456908, 11645456909, 11645473658, 11645473649], "tags": {"description": "Also known as Mossampedika, Benhill is a  unofficial village situated on a hill also called Benhill. The name Benhill is derived from the School and Church run by Catholic Benedictine Priests.", "name": "Benhill", "place": "village", "population": "100-200", "residential": "rural"}}]}