{"version": 0.6, "generator": "Overpass API 0.7.62.1 084b4234", "osm3s": {"timestamp_osm_base": "2024-11-07T07:11:15Z", "copyright": "The data included in this document is from www.openstreetmap.org. The data is made available under ODbL."}, "elements": [{"type": "node", "id": 354903127, "lat": 9.5368168, "lon": 76.8855086, "tags": {"name": "Mundakkayam", "name:ml": "\u0d2e\u0d41\u0d23\u0d4d\u0d1f\u0d15\u0d4d\u0d15\u0d2f\u0d02", "name:ta": "\u0bae\u0bc1\u0ba3\u0bcd\u0b9f\u0b95\u0bcd\u0b95\u0baf\u0bae\u0bcd", "place": "town", "postal_code": "686513", "wikidata": "Q6935720", "wikimedia_commons": "Category:Mundakayam", "wikipedia": "en:Mundakayam"}}, {"type": "node", "id": 359622163, "lat": 9.2655337, "lon": 76.7871514, "tags": {"capital": "5", "name": "Pathanamthitta", "name:ar": "\u0628\u062a\u0646\u0645\u062a\u0637\u0627", "name:en": "Pathanamthitta", "name:he": "\u05e4\u05ea\u05e0\u05de\u05ea\u05d9\u05d8\u05d4", "name:hi": "\u092a\u0924\u094d\u0924\u0928\u092e\u0924\u093f\u091f\u094d\u091f\u093e", "name:kn": "\u0caa\u0ca4\u0ccd\u0ca4\u0ca8\u0c82\u0ca4\u0cbf\u0c9f\u0ccd\u0c9f", "name:ml": "\u0d2a\u0d24\u0d4d\u0d24\u0d28\u0d02\u0d24\u0d3f\u0d1f\u0d4d\u0d1f", "name:ru": "\u041f\u0430\u0442\u0430\u043d\u0430\u043c\u0442\u0438\u0442\u0442\u0430", "name:ta": "\u0baa\u0ba4\u0bcd\u0ba4\u0ba9\u0bae\u0bcd\u0ba4\u0bbf\u0b9f\u0bcd\u0b9f\u0bbe", "name:te": "\u0c2a\u0c24\u0c28\u0c02\u0c24\u0c3f\u0c1f\u0c4d\u0c1f", "name:uk": "\u041f\u0430\u0442\u0433\u0430\u043d\u0430\u043c\u0442\u0433\u0456\u0442\u0442\u0430", "name:zh": "\u5e15\u5854\u7eb3\u59c6\u8482\u7279\u5854", "place": "town", "website": "https://pathanamthitta.nic.in/", "wikidata": "Q1025266", "wikipedia": "en:Pathanamthitta"}}, {"type": "node", "id": 570751416, "lat": 9.3852605, "lon": 76.7848789, "tags": {"alt_name:en": "Ranny", "name": "Ranni", "name:ar": "\u0631\u0627\u0646\u064a", "name:en": "Ranni", "name:hi": "\u0930\u093e\u0928\u094d\u0928\u0940", "name:kn": "\u0cb0\u0ca8\u0ccd\u0ca8\u0cbf", "name:ml": "\u0d31\u0d3e\u0d28\u0d4d\u0d28\u0d3f", "name:ru": "\u0420\u0430\u043d\u043d\u0438", "name:ta": "\u0b87\u0bb0\u0bbe\u0ba9\u0bcd\u0ba9\u0bbf", "place": "town", "wikidata": "Q3595244", "wikimedia_commons": "Category:Ranni", "wikipedia": "en:Ranni"}}, {"type": "node", "id": 594884192, "lat": 9.4941627, "lon": 76.7501555, "tags": {"name": "Manimala", "name:ml": "\u0d2e\u0d23\u0d3f\u0d2e\u0d32", "name:ta": "\u0bae\u0ba3\u0bbf\u0bae\u0bb2\u0bc8", "place": "town"}}, {"type": "node", "id": 594884345, "lat": 9.5656334, "lon": 76.6443645, "tags": {"name": "Pampady", "name:en": "Pampady", "name:hi": "\u092a\u093e\u0902\u092c\u093e\u0921\u0940", "name:ml": "\u0d2a\u0d3e\u0d2e\u0d4d\u0d2a\u0d3e\u0d1f\u0d3f", "name:ta": "\u0baa\u0bbe\u0bae\u0bcd\u0baa\u0bbe\u0b9f\u0bbf", "place": "town", "wikidata": "Q7129395", "wikipedia": "en:Pampady"}}, {"type": "node", "id": 861312563, "lat": 9.4813743, "lon": 76.8448927, "tags": {"name": "Erumely", "name:ar": "\u0625\u0631\u0648\u0645\u064a\u0644\u064a", "name:hi": "\u090f\u0930\u0941\u092e\u0947\u0932\u0940", "name:kn": "\u0c8e\u0cb0\u0cc1\u0cae\u0cc7\u0cb2\u0cbf", "name:ml": "\u0d0e\u0d30\u0d41\u0d2e\u0d47\u0d32\u0d3f", "name:ta": "\u0b8e\u0bb0\u0bc1\u0bae\u0bc7\u0bb2\u0bbf", "name:te": "\u0c0e\u0c30\u0c41\u0c2e\u0c47\u0c32\u0c3f", "place": "town", "wikidata": "Q3522933", "wikimedia_commons": "Category:Erumely", "wikipedia": "en:Erumely"}}, {"type": "node", "id": 980075986, "lat": 9.2266942, "lon": 76.8499466, "tags": {"description": "Konni is a major town and a Taluk headquarters in Pathanamthitta district, Kerala, India. Konni is known for its elephant cages, forests, and rubber plantations. Konni is also known as \"Anakoodinte Nadu\".", "int_name": "Konny", "is_in:district": "Pathanamthitta", "is_in:state": "Kerala", "name": "Konni", "name:ar": "\u0643\u0648\u0646\u064a", "name:en": "Konni", "name:hi": "\u0915\u094b\u0928\u094d\u0928\u093f", "name:ml": "\u0d15\u0d4b\u0d28\u0d4d\u0d28\u0d3f", "name:ru": "\u041a\u043e\u043d\u043d\u0438", "name:ta": "\u0b95\u0bcb\u0ba9\u0bcd\u0ba9\u0bbf", "place": "town", "population": "27800", "wikidata": "Q3595509", "wikimedia_commons": "Category:Konni", "wikipedia": "en:Konni, Kerala"}}, {"type": "node", "id": 1653599986, "lat": 9.5593525, "lon": 76.5715284, "tags": {"name": "Puthuppally", "name:en": "Puthuppally", "name:ml": "\u0d2a\u0d41\u0d24\u0d41\u0d2a\u0d4d\u0d2a\u0d33\u0d4d\u0d33\u0d3f", "name:ta": "\u0baa\u0bc1\u0ba4\u0bc1\u0baa\u0bcd\u0baa\u0bb3\u0bcd\u0bb3\u0bbf", "place": "town", "wikidata": "Q7262268", "wikimedia_commons": "Category:Puthuppally, Kottayam", "wikipedia": "en:Puthuppally, Kottayam"}}, {"type": "node", "id": 1682779066, "lat": 9.3178608, "lon": 76.6139049, "tags": {"name": "Chengannur", "name:ar": "\u062a\u0634\u0646\u062c\u0646\u0646\u0648\u0631", "name:hi": "\u091a\u0947\u0902\u0917\u0928\u094d\u0928\u0942\u0930", "name:kn": "\u0c9a\u0cc6\u0c82\u0c97\u0ca8\u0ccd\u0ca8\u0cc2\u0cb0\u0cc1", "name:ml": "\u0d1a\u0d46\u0d19\u0d4d\u0d19\u0d28\u0d4d\u0d28\u0d42\u0d30\u0d4d\u200d", "name:ru": "\u0427\u0435\u043d\u0433\u0430\u043d\u043d\u0443\u0440", "name:ta": "\u0b9a\u0bc6\u0b99\u0bcd\u0b95\u0ba9\u0bcd\u0ba9\u0bc2\u0bb0\u0bcd", "name:te": "\u0c1a\u0c46\u0c02\u0c17\u0c28\u0c4d\u0c28\u0c42\u0c30\u0c41", "place": "town", "wikidata": "Q888384", "wikimedia_commons": "Category:Chengannur", "wikipedia": "en:Chengannur"}}, {"type": "node", "id": 1682779068, "lat": 9.3867448, "lon": 76.5762652, "tags": {"name": "Thiruvalla", "name:ar": "\u062a\u064a\u0631\u0648\u0648\u0644\u0644\u0627", "name:hi": "\u0924\u093f\u0930\u0941\u0935\u0932\u094d\u0932\u093e", "name:kn": "\u0ca4\u0cbf\u0cb0\u0cc1\u0cb5\u0cb2\u0ccd\u0cb2", "name:ml": "\u0d24\u0d3f\u0d30\u0d41\u0d35\u0d32\u0d4d\u0d32", "name:ru": "\u0422\u0438\u0440\u0443\u0432\u0430\u043b\u043b\u0430", "name:ta": "\u0ba4\u0bbf\u0bb0\u0bc1\u0bb5\u0bb2\u0bcd\u0bb2\u0bbe", "name:te": "\u0c24\u0c3f\u0c30\u0c41\u0c35\u0c32\u0c4d\u0c32", "place": "town", "wikidata": "Q2336443", "wikipedia": "en:Thiruvalla"}}, {"type": "node", "id": 2272004767, "lat": 9.5583077, "lon": 76.791361, "tags": {"name": "Kanjirappalli", "name:ml": "\u0d15\u0d3e\u0d1e\u0d4d\u0d1e\u0d3f\u0d30\u0d2a\u0d4d\u0d2a\u0d33\u0d4d\u0d33\u0d3f", "name:ta": "\u0b95\u0bbe\u0b9e\u0bcd\u0b9a\u0bbf\u0bb0\u0baa\u0bcd\u0baa\u0bb3\u0bcd\u0bb3\u0bbf", "place": "town", "wikidata": "Q6363485", "wikipedia": "en:Kanjirappally"}}, {"type": "node", "id": 2641311673, "lat": 9.3369731, "lon": 76.7064286, "tags": {"description": "Kozhencherry is a census town in Pathanamthitta district of Central Travancore region (South Central Kerala) in Kerala state, South India.", "int_name": "Kozhenchery", "is_in:district": "Pathanamthitta", "name": "Kozhencherry", "name:ar": "\u0643\u0648\u062c\u0646\u062c\u064a\u0631\u064a", "name:en": "Kozhencherry", "name:hi": "\u0915\u094b\u0937\u093c\u0928\u094d\u091c\u0947\u0930\u0940", "name:kn": "\u0c95\u0cca\u0c9c\u0cc6\u0c82\u0c9a\u0cc7\u0cb0\u0cbf", "name:ml": "\u0d15\u0d4b\u0d34\u0d1e\u0d4d\u0d1a\u0d47\u0d30\u0d3f", "name:ta": "\u0b95\u0bcb\u0bb4\u0b9e\u0bcd\u0b9a\u0bc7\u0bb0\u0bbf", "name:te": "\u0c15\u0c4b\u0c1c\u0c46\u0c02\u0c1a\u0c47\u0c30\u0c3f", "place": "town", "population": "12021", "wikidata": "Q6435231", "wikipedia": "en:Kozhencherry"}}, {"type": "node", "id": 2728196042, "lat": 9.339441, "lon": 76.6978518, "tags": {"name": "Maramon", "name:ml": "\u0d2e\u0d3e\u0d30\u0d3e\u0d2e\u0d23\u0d4d\u200d", "name:ta": "\u0bae\u0bbe\u0bb0\u0bbe\u0bae\u0ba9\u0bcd", "place": "town", "wikidata": "Q6754750", "wikimedia_commons": "Category:Maramon", "wikipedia": "en:Maramon"}}, {"type": "node", "id": 2883759867, "lat": 9.3407808, "lon": 76.8293265, "tags": {"name": "Vadasserikkara", "name:ml": "\u0d35\u0d1f\u0d36\u0d4d\u0d36\u0d47\u0d30\u0d3f\u0d15\u0d4d\u0d15\u0d30", "name:ta": "\u0bb5\u0b9f\u0b9a\u0bc7\u0bb0\u0bbf\u0b95\u0bcd\u0b95\u0bb0\u0bc8", "place": "town", "wikidata": "Q7908170", "wikimedia_commons": "Category:Vadasserikara", "wikipedia": "en:Vadasserikara"}}, {"type": "node", "id": 2897175280, "lat": 9.2427057, "lon": 76.7558362, "tags": {"name": "Omalloor", "name:en": "Omalloor", "name:ml": "\u0d13\u0d2e\u0d32\u0d4d\u0d32\u0d42\u0d7c", "place": "town", "wikidata": "Q7089510", "wikimedia_commons": "Category:Omallur", "wikipedia": "en:Omallur"}}, {"type": "node", "id": 2905479315, "lat": 9.2251208, "lon": 76.6781249, "tags": {"is_in": "Kerala;KL;India;IN", "name": "Pandalam", "name:hi": "\u092a\u0902\u0926\u0932\u092e", "name:kn": "\u0caa\u0c82\u0ca6\u0cb3\u0c82", "name:ml": "\u0d2a\u0d28\u0d4d\u0d24\u0d33\u0d02", "name:ru": "\u041f\u0430\u043d\u0434\u0430\u043b\u0430\u043c", "name:ta": "\u0baa\u0ba8\u0bcd\u0ba4\u0bb3\u0bae\u0bcd", "name:te": "\u0c2a\u0c02\u0c26\u0c33\u0c02", "place": "town", "wikidata": "Q3531011", "wikimedia_commons": "Category:Pandalam", "wikipedia": "en:Pandalam"}}, {"type": "node", "id": 2917286073, "lat": 9.5011646, "lon": 76.638361, "tags": {"name": "Karukachal", "name:en": "Karukachal", "name:ml": "\u0d15\u0d31\u0d41\u0d15\u0d1a\u0d4d\u0d1a\u0d3e\u0d7d", "name:ta": "\u0b95\u0bb0\u0bc1\u0b95\u0b9a\u0bcd\u0b9a\u0bbe\u0bb2\u0bcd", "place": "town", "wikidata": "Q1531311", "wikimedia_commons": "Category:Karukachal", "wikipedia": "en:Karukachal"}}, {"type": "node", "id": 2917322139, "lat": 9.4459505, "lon": 76.655344, "tags": {"name": "Mallappally", "name:ml": "\u0d2e\u0d32\u0d4d\u0d32\u0d2a\u0d4d\u0d2a\u0d33\u0d4d\u0d33\u0d3f", "name:ta": "\u0bae\u0bb2\u0bcd\u0bb2\u0baa\u0bcd\u0baa\u0bb3\u0bcd\u0bb3\u0bbf", "place": "town", "wikidata": "Q6744066", "wikimedia_commons": "Category:Mallapally", "wikipedia": "en:Mallapally"}}, {"type": "node", "id": 3341023671, "lat": 9.6306232, "lon": 76.9784714, "tags": {"name": "Elappara", "name:ml": "\u0d0f\u0d32\u0d2a\u0d4d\u0d2a\u0d3e\u0d31", "name:ta": "\u0b8f\u0bb2\u0baa\u0bcd\u0baa\u0bbe\u0bb1\u0bc8", "place": "town", "wikidata": "Q5353509", "wikipedia": "en:Elappara"}}, {"type": "node", "id": 4455273889, "lat": 9.564952, "lon": 76.755683, "tags": {"name": "Ponkunnam", "name:ml": "\u0d2a\u0d4a\u0d7b\u0d15\u0d41\u0d28\u0d4d\u0d28\u0d02", "name:ta": "\u0baa\u0bca\u0ba9\u0bcd\u0b95\u0bc1\u0ba9\u0bcd\u0ba9\u0bae\u0bcd", "place": "town", "wikidata": "Q7227871", "wikimedia_commons": "Category:Ponkunnam", "wikipedia": "en:Ponkunnam"}}, {"type": "node", "id": 4832296179, "lat": 9.5880083, "lon": 76.5823671, "tags": {"alt_name": "Manarcaud;Manarkad", "name": "Manarcadu", "name:en": "Manarcadu", "name:ml": "\u0d2e\u0d23\u0d7c\u0d15\u0d3e\u0d1f\u0d4d", "name:ta": "\u0bae\u0ba3\u0bb1\u0bcd\u0b95\u0bbe\u0b9f\u0bc1", "place": "town", "wikidata": "Q6746958", "wikimedia_commons": "Category:Manarcaud", "wikipedia": "en:Manarcaud"}}, {"type": "node", "id": 6269149027, "lat": 9.3298551, "lon": 76.9258484, "tags": {"name": "Chittar", "name:ml": "\u0d1a\u0d3f\u0d31\u0d4d\u0d31\u0d3e\u0d7c", "name:ta": "\u0b9a\u0bbf\u0bb1\u0bcd\u0bb1\u0bbe\u0bb0\u0bcd", "place": "town", "postal_code": "689663", "wikidata": "Q5102421", "wikimedia_commons": "Category:Chittar", "wikipedia": "en:Chittar, Kerala"}}, {"type": "node", "id": 10893796033, "lat": 9.3674124, "lon": 76.6568494, "tags": {"alt_name:en": "Kombanad", "name": "Kumbanad", "name:kn": "\u0c95\u0cc1\u0c82\u0cac\u0ca8\u0cbe\u0ca6", "name:ml": "\u0d15\u0d41\u0d2e\u0d4d\u0d2a\u0d28\u0d3e\u0d1f\u0d4d", "name:ta": "\u0b95\u0bc1\u0bae\u0bcd\u0baa\u0ba8\u0bbe\u0b9f\u0bc1", "place": "town", "wikidata": "Q6443709", "wikimedia_commons": "Category:Kumbanad", "wikipedia": "en:Kumbanad"}}]}